[{
  "_id": {
    "$oid": "638f7a94e6fffe8ea5a77b05"
  },
  "code": 10028,
  "name": "ACES Alto Ave - Guimarães, Vizela e Terras de Basto",
  "cp": "4810-503",
  "localization": {
    "latitude": 41.444903,
    "longitude": -8.295062
  },
  "status": 1
},{
  "_id": {
    "$oid": "638f7ecae6fffe8ea5a77b06"
  },
  "code": 10001,
  "name": "ACES Alto Minho",
  "cp": "4904-858",
  "localization": {
    "latitude": 41.697366,
    "longitude": -8.822558
  },
  "status": 1
},{
  "_id": {
    "$oid": "638f7fa5e6fffe8ea5a77b07"
  },
  "code": 10025,
  "name": "ACES Alto Trás-os-Montes - Alto Tâmega e Barroso",
  "cp": "5400-261",
  "localization": {
    "latitude": 41.752892,
    "longitude": -7.478213
  },
  "status": 1
},{
  "_id": {
    "$oid": "638f7fdfe6fffe8ea5a77b08"
  },
  "code": 10012,
  "name": "ACES Ave / Famalicão",
  "cp": "4765-628",
  "localization": {
    "latitude": 41.383733,
    "longitude": -8.415615
  },
  "status": 1
},{
  "_id": {
    "$oid": "638f808de6fffe8ea5a77b09"
  },
  "code": 10005,
  "name": "ACES Entre Douro e Vouga II - Aveiro Norte",
  "cp": "3720-287",
  "localization": {
    "latitude": 40.876555,
    "longitude": -8.491548
  },
  "status": 1
},{
  "_id": {
    "$oid": "638f80e2e6fffe8ea5a77b0a"
  },
  "code": 10010,
  "name": "ACES Tâmega I - Baixo Tâmega",
  "cp": "4600-093",
  "localization": {
    "latitude": 41.287406,
    "longitude": -8.033954
  },
  "status": 1
},{
  "_id": {
    "$oid": "638f8121e6fffe8ea5a77b0b"
  },
  "code": 10007,
  "name": "ACES Cávado III - Barcelos / Esposende",
  "cp": "4750-253",
  "localization": {
    "latitude": 41.5343,
    "longitude": -8.623173
  },
  "status": 1
},{
  "_id": {
    "$oid": "638f814ce6fffe8ea5a77b0c"
  },
  "code": 10008,
  "name": "ACES Cávado I - Braga",
  "cp": "4700-036",
  "localization": {
    "latitude": 41.547574,
    "longitude": -8.428412
  },
  "status": 1
}]